{
   "type": "FeatureCollection",
   "features": 

[
   {
      "type":"Feature",
      "properties":{
         "name":"Bacolod - Abyan Radyo",
         "freq_value":"1035.0"
      },
      "geometry":{
         "type":"Point",
         "coordinates":[
            122.951,
            10.6784
         ]
      }
   },
   {
      "type":"Feature",
      "properties":{
         "name":"DZAS - Metro Manila - Agapay ng Sambayanan",
         "freq_value":"702.0"
      },
      "geometry":{
         "type":"Point",
         "coordinates":[
            121.034,
            14.5616
         ]
      }
   },
   {
      "type":"Feature",
      "properties":{
         "name":"DZJC - Ilocos Norte - Aksyon Radyo",
         "freq_value":"747.0"
      },
      "geometry":{
         "type":"Point",
         "coordinates":[
            120.593,
            18.1981
         ]
      }
   },
   {
      "type":"Feature",
      "properties":{
         "name":"DXGO-AM - Davao City - Aksyon Radyo",
         "freq_value":"855.0"
      },
      "geometry":{
         "type":"Point",
         "coordinates":[
            125.613,
            7.07996
         ]
      }
   },
   {
      "type":"Feature",
      "properties":{
         "name":"DYVL-AM - Justice Romualdez Street Corner Real Street, Tacloban City, Leyte - Aksyon Radyo",
         "freq_value":"819.0"
      },
      "geometry":{
         "type":"Point",
         "coordinates":[
            125.002,
            11.2407
         ]
      }
   },
   {
      "type":"Feature",
      "properties":{
         "name":"DYMS-AM - Catbalogan, Samar - Aksyon Radyo",
         "freq_value":"1044.0"
      },
      "geometry":{
         "type":"Point",
         "coordinates":[
            124.89,
            11.7596
         ]
      }
   },
   {
      "type":"Feature",
      "properties":{
         "name":"DYSM - Catarman, Northern Samar - Aksyon Radyo",
         "freq_value":"972.0"
      },
      "geometry":{
         "type":"Point",
         "coordinates":[
            124.638,
            12.5017
         ]
      }
   },
   {
      "type":"Feature",
      "properties":{
         "name":"DYEZ - Bacolod - Aksyon Radyo",
         "freq_value":"684.0"
      },
      "geometry":{
         "type":"Point",
         "coordinates":[
            122.951,
            10.6784
         ]
      }
   },
   {
      "type":"Feature",
      "properties":{
         "name":"DYOK-AM - Iloilo - Aksyon Radyo",
         "freq_value":"720.0"
      },
      "geometry":{
         "type":"Point",
         "coordinates":[
            122.571,
            10.6969
         ]
      }
   },
   {
      "type":"Feature",
      "properties":{
         "name":"DWCM - Dagupan City, Pangasinan - Aksyon Radyo",
         "freq_value":"1161.0"
      },
      "geometry":{
         "type":"Point",
         "coordinates":[
            120.332,
            16.0284
         ]
      }
   },
   {
      "type":"Feature",
      "properties":{
         "name":"DYRO - Roxas City, Capiz - Allied BC",
         "freq_value":"945.0"
      },
      "geometry":{
         "type":"Point",
         "coordinates":[
            122.756,
            11.5852
         ]
      }
   },
   {
      "type":"Feature",
      "properties":{
         "name":"DYAY - Mingranilla, Cebu - Allied BC",
         "freq_value":"1584.0"
      },
      "geometry":{
         "type":"Point",
         "coordinates":[
            123.789,
            10.2433
         ]
      }
   },
   {
      "type":"Feature",
      "properties":{
         "name":"DYRP - Iloilo City, Iloilo - Allied BC",
         "freq_value":"1017.0"
      },
      "geometry":{
         "type":"Point",
         "coordinates":[
            122.571,
            10.6969
         ]
      }
   },
   {
      "type":"Feature",
      "properties":{
         "name":"DWLQ - Lucena City, Quezon - Allied BC",
         "freq_value":"1296.0"
      },
      "geometry":{
         "type":"Point",
         "coordinates":[
            121.612,
            13.9353
         ]
      }
   },
   {
      "type":"Feature",
      "properties":{
         "name":"DXRT-AM - Jolo, Sulu - Angel Radyo",
         "freq_value":"873.0"
      },
      "geometry":{
         "type":"Point",
         "coordinates":[
            120.995,
            6.04696
         ]
      }
   },
   {
      "type":"Feature",
      "properties":{
         "name":"DWDD - Metro Manila - Armed Forces Radio",
         "freq_value":"1134.0"
      },
      "geometry":{
         "type":"Point",
         "coordinates":[
            121.05,
            14.6495
         ]
      }
   },
   {
      "type":"Feature",
      "properties":{
         "name":"DXID-FM - Pagadian City, Zamboanga Del Sur - Association for Islamic Development Orgs.",
         "freq_value":"101.5"
      },
      "geometry":{
         "type":"Point",
         "coordinates":[
            123.425,
            7.8238
         ]
      }
   },
   {
      "type":"Feature",
      "properties":{
         "name":"DXID - AM Pagadian City, Zamboanga Del Sur - Association for Islamic Development Orgs.",
         "freq_value":"1566.0"
      },
      "geometry":{
         "type":"Point",
         "coordinates":[
            123.425,
            7.8238
         ]
      }
   },
   {
      "type":"Feature",
      "properties":{
         "name":"DZDF - Cabanatuan City, Nueva Ecija - Baha'i Radio 1584",
         "freq_value":"1584.0"
      },
      "geometry":{
         "type":"Point",
         "coordinates":[
            120.975,
            15.4874
         ]
      }
   },
   {
      "type":"Feature",
      "properties":{
         "name":"DYDD - Cebu City, Cebu - Bantay Radyo",
         "freq_value":"1260.0"
      },
      "geometry":{
         "type":"Point",
         "coordinates":[
            123.895,
            10.3101
         ]
      }
   },
   {
      "type":"Feature",
      "properties":{
         "name":"DTZZ-AM - Guihulngan. Negros Oriental - Bantay Radyo",
         "freq_value":"1458.0"
      },
      "geometry":{
         "type":"Point",
         "coordinates":[
            123.273,
            10.1186
         ]
      }
   },
   {
      "type":"Feature",
      "properties":{
         "name":"DZJO-AM - Infanta City, Quezon - Bayanihan BC",
         "freq_value":"720.0"
      },
      "geometry":{
         "type":"Point",
         "coordinates":[
            121.612,
            14.7455
         ]
      }
   },
   {
      "type":"Feature",
      "properties":{
         "name":"Baguio City, Benguet - Benguet Broadcasting Corporation",
         "freq_value":"1512.0"
      },
      "geometry":{
         "type":"Point",
         "coordinates":[
            120.594,
            16.4116
         ]
      }
   },
   {
      "type":"Feature",
      "properties":{
         "name":"Naga City, Camarines Sur - Bicol BS",
         "freq_value":"603.0"
      },
      "geometry":{
         "type":"Point",
         "coordinates":[
            123.178,
            13.6162
         ]
      }
   },
   {
      "type":"Feature",
      "properties":{
         "name":"Legazpi City, Albay - Bicol BS",
         "freq_value":"1440.0"
      },
      "geometry":{
         "type":"Point",
         "coordinates":[
            123.745,
            13.1363
         ]
      }
   },
   {
      "type":"Feature",
      "properties":{
         "name":"DXES-AM - General Santos City, South Cotabato - Bombo Radyo",
         "freq_value":"801.0"
      },
      "geometry":{
         "type":"Point",
         "coordinates":[
            125.197,
            6.12918
         ]
      }
   },
   {
      "type":"Feature",
      "properties":{
         "name":"DXMC-AM - Koronadal City, South Cotabato - Bombo Radyo",
         "freq_value":"1026.0"
      },
      "geometry":{
         "type":"Point",
         "coordinates":[
            124.846,
            6.50139
         ]
      }
   },
   {
      "type":"Feature",
      "properties":{
         "name":"DXBR-AM - Butuan City, Agusan Del Norte - Bombo Radyo",
         "freq_value":"981.0"
      },
      "geometry":{
         "type":"Point",
         "coordinates":[
            125.555,
            8.95003
         ]
      }
   },
   {
      "type":"Feature",
      "properties":{
         "name":"DXLX-AM - Iligan City, Lanao Del Norte - Bombo Radyo",
         "freq_value":"1188.0"
      },
      "geometry":{
         "type":"Point",
         "coordinates":[
            124.246,
            8.23217
         ]
      }
   },
   {
      "type":"Feature",
      "properties":{
         "name":"DXIF-AM - Cagayan De Oro City, Misamis Oriental - Bombo Radyo",
         "freq_value":"1188.0"
      },
      "geometry":{
         "type":"Point",
         "coordinates":[
            124.649,
            8.48514
         ]
      }
   },
   {
      "type":"Feature",
      "properties":{
         "name":"DZVX-AM - Daet, Camarines Norte - Bombo Radyo",
         "freq_value":"1269.0"
      },
      "geometry":{
         "type":"Point",
         "coordinates":[
            122.958,
            14.1201
         ]
      }
   },
   {
      "type":"Feature",
      "properties":{
         "name":"DZNG-AM - Naga City, Camarines Sur - Bombo Radyo",
         "freq_value":"1044.0"
      },
      "geometry":{
         "type":"Point",
         "coordinates":[
            123.178,
            13.6162
         ]
      }
   },
   {
      "type":"Feature",
      "properties":{
         "name":"DYOW-AM - Roxas City, Capiz - Bombo Radyo",
         "freq_value":"900.0"
      },
      "geometry":{
         "type":"Point",
         "coordinates":[
            122.756,
            11.5852
         ]
      }
   },
   {
      "type":"Feature",
      "properties":{
         "name":"Bacolod - Bombo Radyo",
         "freq_value":"1269.0"
      },
      "geometry":{
         "type":"Point",
         "coordinates":[
            122.951,
            10.6784
         ]
      }
   },
   {
      "type":"Feature",
      "properties":{
         "name":"DZWX - Baguio City, Benguet - Bombo Radyo",
         "freq_value":"1035.0"
      },
      "geometry":{
         "type":"Point",
         "coordinates":[
            120.594,
            16.4116
         ]
      }
   },
   {
      "type":"Feature",
      "properties":{
         "name":"DYMF - Cebu - Bombo Radyo",
         "freq_value":"963.0"
      },
      "geometry":{
         "type":"Point",
         "coordinates":[
            124.649,
            8.48514
         ]
      }
   },
   {
      "type":"Feature",
      "properties":{
         "name":"DZWN - Dagupan City, Pangasinan - Bombo Radyo",
         "freq_value":"1125.0"
      },
      "geometry":{
         "type":"Point",
         "coordinates":[
            120.332,
            16.0284
         ]
      }
   },
   {
      "type":"Feature",
      "properties":{
         "name":"Mindanao - Davao - Bombo Radyo",
         "freq_value":"576.0"
      },
      "geometry":{
         "type":"Point",
         "coordinates":[
            125.613,
            7.07996
         ]
      }
   },
   {
      "type":"Feature",
      "properties":{
         "name":"DYRC - Dumaguete City, Negros Oriental - Bombo Radyo",
         "freq_value":"855.0"
      },
      "geometry":{
         "type":"Point",
         "coordinates":[
            123.311,
            9.3073
         ]
      }
   },
   {
      "type":"Feature",
      "properties":{
         "name":"Iloilo - Bombo Radyo",
         "freq_value":"837.0"
      },
      "geometry":{
         "type":"Point",
         "coordinates":[
            122.571,
            10.6969
         ]
      }
   },
   {
      "type":"Feature",
      "properties":{
         "name":"DZNC - Cauayan City, Isabela - Bombo Radyo",
         "freq_value":"801.0"
      },
      "geometry":{
         "type":"Point",
         "coordinates":[
            121.765,
            16.9307
         ]
      }
   },
   {
      "type":"Feature",
      "properties":{
         "name":"DYIN - Kalibo, Aklan - Bombo Radyo",
         "freq_value":"1107.0"
      },
      "geometry":{
         "type":"Point",
         "coordinates":[
            122.368,
            11.7091
         ]
      }
   },
   {
      "type":"Feature",
      "properties":{
         "name":"DZSO - San Fernando City, La Union - Bombo Radyo",
         "freq_value":"720.0"
      },
      "geometry":{
         "type":"Point",
         "coordinates":[
            120.319,
            16.617
         ]
      }
   },
   {
      "type":"Feature",
      "properties":{
         "name":"DZVR - Ilocos Norte - Bombo Radyo",
         "freq_value":"711.0"
      },
      "geometry":{
         "type":"Point",
         "coordinates":[
            120.593,
            18.1981
         ]
      }
   },
   {
      "type":"Feature",
      "properties":{
         "name":"DZLG - Legazpi City, Albay - Bombo Radyo",
         "freq_value":"927.0"
      },
      "geometry":{
         "type":"Point",
         "coordinates":[
            123.745,
            13.1363
         ]
      }
   },
   {
      "type":"Feature",
      "properties":{
         "name":"DZGR - Tuguegarao City, Cagayan - Bombo Radyo",
         "freq_value":"891.0"
      },
      "geometry":{
         "type":"Point",
         "coordinates":[
            121.733,
            17.6167
         ]
      }
   },
   {
      "type":"Feature",
      "properties":{
         "name":"DZVR - Ilocos Sur - Bombo Radyo",
         "freq_value":"585.0"
      },
      "geometry":{
         "type":"Point",
         "coordinates":[
            120.387,
            17.5746
         ]
      }
   },
   {
      "type":"Feature",
      "properties":{
         "name":"Daet, Camarines Norte - Caceres BC",
         "freq_value":"1197.0"
      },
      "geometry":{
         "type":"Point",
         "coordinates":[
            122.958,
            14.1201
         ]
      }
   },
   {
      "type":"Feature",
      "properties":{
         "name":"DYAG-AM - Cadiz City, Negros Occidental - Cadiz Radio & TV Network Inc",
         "freq_value":"630.0"
      },
      "geometry":{
         "type":"Point",
         "coordinates":[
            123.287,
            10.9453
         ]
      }
   },
   {
      "type":"Feature",
      "properties":{
         "name":"DZRA-AM - Virac, Catanduanes - Catanduanes State College",
         "freq_value":"1368.0"
      },
      "geometry":{
         "type":"Point",
         "coordinates":[
            124.234,
            13.5907
         ]
      }
   },
   {
      "type":"Feature",
      "properties":{
         "name":"DZVT-AM - San Jose, Mindoro Occidental - Catholic Bishops Conference of the Philippines",
         "freq_value":"1395.0"
      },
      "geometry":{
         "type":"Point",
         "coordinates":[
            121.085,
            12.3698
         ]
      }
   },
   {
      "type":"Feature",
      "properties":{
         "name":"DZWM - Alaminos City, Pangasinan - Catholic Welfare Organisation",
         "freq_value":"864.0"
      },
      "geometry":{
         "type":"Point",
         "coordinates":[
            119.98,
            16.1568
         ]
      }
   },
   {
      "type":"Feature",
      "properties":{
         "name":"DYVW-AM - Clergy House, Baybay Boulevard, Borongan, Eastern Samar - Catholic Welfare Organisation",
         "freq_value":"1386.0"
      },
      "geometry":{
         "type":"Point",
         "coordinates":[
            125.433,
            11.6116
         ]
      }
   },
   {
      "type":"Feature",
      "properties":{
         "name":"DYDM - Mambajao, Maasin City, Southern Leyte - Catholic Welfare Organisation",
         "freq_value":"1548.0"
      },
      "geometry":{
         "type":"Point",
         "coordinates":[
            124.717,
            9.25615
         ]
      }
   },
   {
      "type":"Feature",
      "properties":{
         "name":"Cauayan City, Isabela - Cebu Broadcasting Corporation",
         "freq_value":"837.0"
      },
      "geometry":{
         "type":"Point",
         "coordinates":[
            121.765,
            16.9307
         ]
      }
   },
   {
      "type":"Feature",
      "properties":{
         "name":"Cebu City, Cebu - Cebu Catholic Television Network",
         "freq_value":"1332.0"
      },
      "geometry":{
         "type":"Point",
         "coordinates":[
            123.895,
            10.3101
         ]
      }
   },
   {
      "type":"Feature",
      "properties":{
         "name":"DYBB-AM - Baybay, Leyte - CentralVisayas College",
         "freq_value":"1449.0"
      },
      "geometry":{
         "type":"Point",
         "coordinates":[
            124.813,
            10.6819
         ]
      }
   },
   {
      "type":"Feature",
      "properties":{
         "name":"DXMU-AM -Musuan, Bukidnon - Central Mindanao University",
         "freq_value":"1422.0"
      },
      "geometry":{
         "type":"Point",
         "coordinates":[
            125.255,
            7.96682
         ]
      }
   },
   {
      "type":"Feature",
      "properties":{
         "name":"DYZD-AM - Ubay, Bohol - Chronicle Radio",
         "freq_value":"1161.0"
      },
      "geometry":{
         "type":"Point",
         "coordinates":[
            124.473,
            10.0515
         ]
      }
   },
   {
      "type":"Feature",
      "properties":{
         "name":"DWRS - Ilocos Sur - Commando Radyo 927",
         "freq_value":"927.0"
      },
      "geometry":{
         "type":"Point",
         "coordinates":[
            120.387,
            17.5746
         ]
      }
   },
   {
      "type":"Feature",
      "properties":{
         "name":"DYWB - Bacolod City, Negros Occidental - Consolidated BS",
         "freq_value":"1341.0"
      },
      "geometry":{
         "type":"Point",
         "coordinates":[
            122.951,
            10.6784
         ]
      }
   },
   {
      "type":"Feature",
      "properties":{
         "name":"DWBA - Abra - DWBA 1197",
         "freq_value":"1197.0"
      },
      "geometry":{
         "type":"Point",
         "coordinates":[
            120.619,
            17.5977
         ]
      }
   },
   {
      "type":"Feature",
      "properties":{
         "name":"DWCT - Legazpi City, Albay - DWCT",
         "freq_value":"1557.0"
      },
      "geometry":{
         "type":"Point",
         "coordinates":[
            123.745,
            13.1363
         ]
      }
   },
   {
      "type":"Feature",
      "properties":{
         "name":"DWDW - Dagupan City, Pangasinan - DWDW 1017",
         "freq_value":"1017.0"
      },
      "geometry":{
         "type":"Point",
         "coordinates":[
            120.332,
            16.0284
         ]
      }
   },
   {
      "type":"Feature",
      "properties":{
         "name":"DWGW-AM - Legazpi City, Albay - DWGW-AM",
         "freq_value":"684.0"
      },
      "geometry":{
         "type":"Point",
         "coordinates":[
            123.745,
            13.1363
         ]
      }
   },
   {
      "type":"Feature",
      "properties":{
         "name":"DWHL - Olongapo City, Zambales - Radyo Apo 756",
         "freq_value":"756.0"
      },
      "geometry":{
         "type":"Point",
         "coordinates":[
            120.283,
            14.8308
         ]
      }
   },
   {
      "type":"Feature",
      "properties":{
         "name":"DWIN - Dagupan City, Pangasinan - Radyo Agila 1080",
         "freq_value":"1080.0"
      },
      "geometry":{
         "type":"Point",
         "coordinates":[
            120.332,
            16.0284
         ]
      }
   },
   {
      "type":"Feature",
      "properties":{
         "name":"DWJJ - Cabanatuan City, Nueva Ecija - DWJJ 684",
         "freq_value":"684.0"
      },
      "geometry":{
         "type":"Point",
         "coordinates":[
            120.975,
            15.4874
         ]
      }
   },
   {
      "type":"Feature",
      "properties":{
         "name":"DWMC - Rosales, Pangasinan - DWMC 1260",
         "freq_value":"1260.0"
      },
      "geometry":{
         "type":"Point",
         "coordinates":[
            120.631,
            15.8973
         ]
      }
   },
   {
      "type":"Feature",
      "properties":{
         "name":"DWMI-AM - Calapan City, Mindoro Oriental - DWMI-AM",
         "freq_value":"999.0"
      },
      "geometry":{
         "type":"Point",
         "coordinates":[
            120.928,
            12.8698
         ]
      }
   },
   {
      "type":"Feature",
      "properties":{
         "name":"DWMT-AM - Naga City, Camarines Sur - DWMT",
         "freq_value":"981.0"
      },
      "geometry":{
         "type":"Point",
         "coordinates":[
            123.178,
            13.6162
         ]
      }
   },
   {
      "type":"Feature",
      "properties":{
         "name":"DWNE - Palayan City, Nueva Ecija - DWNE 900",
         "freq_value":"900.0"
      },
      "geometry":{
         "type":"Point",
         "coordinates":[
            121.083,
            15.55
         ]
      }
   },
   {
      "type":"Feature",
      "properties":{
         "name":"DWRF - Iba, Zambales - DWRF",
         "freq_value":"1458.0"
      },
      "geometry":{
         "type":"Point",
         "coordinates":[
            119.977,
            15.3284
         ]
      }
   },
   {
      "type":"Feature",
      "properties":{
         "name":"DWRS - Santiago City, Isabela - DWRS Radyo Pilipino 981",
         "freq_value":"981.0"
      },
      "geometry":{
         "type":"Point",
         "coordinates":[
            121.554,
            16.715
         ]
      }
   },
   {
      "type":"Feature",
      "properties":{
         "name":"DWTI - Lucena City, Quezon - DWTI 972",
         "freq_value":"972.0"
      },
      "geometry":{
         "type":"Point",
         "coordinates":[
            121.612,
            13.9353
         ]
      }
   },
   {
      "type":"Feature",
      "properties":{
         "name":"DXOS-AM - Basilan Island - DXOS-AM",
         "freq_value":"1134.0"
      },
      "geometry":{
         "type":"Point",
         "coordinates":[
            122.059,
            6.57625
         ]
      }
   },
   {
      "type":"Feature",
      "properties":{
         "name":"DXRP-AM - Davao City - DXRP-AM",
         "freq_value":"666.0"
      },
      "geometry":{
         "type":"Point",
         "coordinates":[
            125.613,
            7.07996
         ]
      }
   },
   {
      "type":"Feature",
      "properties":{
         "name":"DYAB - Cebu - DYAB Radyo Patrol 1512",
         "freq_value":"1512.0"
      },
      "geometry":{
         "type":"Point",
         "coordinates":[
            123.895,
            10.3101
         ]
      }
   },
   {
      "type":"Feature",
      "properties":{
         "name":"DYCM - Cebu City, Cebu - DYCM",
         "freq_value":"1152.0"
      },
      "geometry":{
         "type":"Point",
         "coordinates":[
            123.895,
            10.3101
         ]
      }
   },
   {
      "type":"Feature",
      "properties":{
         "name":"DYEH-AM - Puerto Princesa City, Palawan - DYEH-AM",
         "freq_value":"729.0"
      },
      "geometry":{
         "type":"Point",
         "coordinates":[
            118.733,
            9.7333
         ]
      }
   },
   {
      "type":"Feature",
      "properties":{
         "name":"DYLA - Cebu City, Cebu - DYLA",
         "freq_value":"909.0"
      },
      "geometry":{
         "type":"Point",
         "coordinates":[
            123.895,
            10.3101
         ]
      }
   },
   {
      "type":"Feature",
      "properties":{
         "name":"DYRD-AM - Tagbilaran, Bohol - DYRD",
         "freq_value":"1161.0"
      },
      "geometry":{
         "type":"Point",
         "coordinates":[
            123.863,
            9.64842
         ]
      }
   },
   {
      "type":"Feature",
      "properties":{
         "name":"DYRS-AM - San Carlos City, Negros Occidental - DYRS-AM",
         "freq_value":"1431.0"
      },
      "geometry":{
         "type":"Point",
         "coordinates":[
            123.287,
            10.9453
         ]
      }
   },
   {
      "type":"Feature",
      "properties":{
         "name":"DYXT-AM - Tagbilaran, Bohol - DYXT-AM",
         "freq_value":"1071.0"
      },
      "geometry":{
         "type":"Point",
         "coordinates":[
            123.863,
            9.64842
         ]
      }
   },
   {
      "type":"Feature",
      "properties":{
         "name":"DZAT - Lucena City, Quezon - DZAT 1512",
         "freq_value":"1512.0"
      },
      "geometry":{
         "type":"Point",
         "coordinates":[
            121.612,
            13.9353
         ]
      }
   },
   {
      "type":"Feature",
      "properties":{
         "name":"DZEL-AM - Lucena City, Quezon - DZEL-AM",
         "freq_value":"1260.0"
      },
      "geometry":{
         "type":"Point",
         "coordinates":[
            121.612,
            13.9353
         ]
      }
   },
   {
      "type":"Feature",
      "properties":{
         "name":"DZGB - Legazpi City, Albay - DZGB 729",
         "freq_value":"729.0"
      },
      "geometry":{
         "type":"Point",
         "coordinates":[
            123.745,
            13.1363
         ]
      }
   },
   {
      "type":"Feature",
      "properties":{
         "name":"DZHR-AM - Virac, Catanduanes - DZHR-AM",
         "freq_value":"576.0"
      },
      "geometry":{
         "type":"Point",
         "coordinates":[
            124.234,
            13.5907
         ]
      }
   },
   {
      "type":"Feature",
      "properties":{
         "name":"DZLU - San Fernando City, La Union - DZLU",
         "freq_value":"657.0"
      },
      "geometry":{
         "type":"Point",
         "coordinates":[
            120.319,
            16.617
         ]
      }
   },
   {
      "type":"Feature",
      "properties":{
         "name":"DZMD - Daet, Camarines Norte - DZMD 1161",
         "freq_value":"1161.0"
      },
      "geometry":{
         "type":"Point",
         "coordinates":[
            122.958,
            14.1201
         ]
      }
   },
   {
      "type":"Feature",
      "properties":{
         "name":"DZNL - San Fernando City, La Union - DZNL Aksyon Radyo 783",
         "freq_value":"783.0"
      },
      "geometry":{
         "type":"Point",
         "coordinates":[
            120.319,
            16.617
         ]
      }
   },
   {
      "type":"Feature",
      "properties":{
         "name":"DZOM-AM - Calapan City, Mindoro Oriental - DZOM-AM",
         "freq_value":"1107.0"
      },
      "geometry":{
         "type":"Point",
         "coordinates":[
            120.928,
            12.8698
         ]
      }
   },
   {
      "type":"Feature",
      "properties":{
         "name":"DZRA - Daet, Camarines Norte - DZRA 1503",
         "freq_value":"1503.0"
      },
      "geometry":{
         "type":"Point",
         "coordinates":[
            122.958,
            14.1201
         ]
      }
   },
   {
      "type":"Feature",
      "properties":{
         "name":"DXRF-AM - Davao City - Nationwide",
         "freq_value":"1260.0"
      },
      "geometry":{
         "type":"Point",
         "coordinates":[
            125.613,
            7.07996
         ]
      }
   },
   {
      "type":"Feature",
      "properties":{
         "name":"Zamboanga City - Nationwide",
         "freq_value":"855.0"
      },
      "geometry":{
         "type":"Point",
         "coordinates":[
            122.063,
            6.91136
         ]
      }
   },
   {
      "type":"Feature",
      "properties":{
         "name":"DZRH - Metro Manila - Nationwide",
         "freq_value":"666.0"
      },
      "geometry":{
         "type":"Point",
         "coordinates":[
            121,
            14.55
         ]
      }
   },
   {
      "type":"Feature",
      "properties":{
         "name":"DZMT - Ilocos Norte - Nationwide",
         "freq_value":"990.0"
      },
      "geometry":{
         "type":"Point",
         "coordinates":[
            120.593,
            18.1981
         ]
      }
   },
   {
      "type":"Feature",
      "properties":{
         "name":"General Santos City, South Cotabato - Nationwide",
         "freq_value":"531.0"
      },
      "geometry":{
         "type":"Point",
         "coordinates":[
            125.197,
            6.12918
         ]
      }
   },
   {
      "type":"Feature",
      "properties":{
         "name":"Cotabato City, Maguindanao - Nationwide",
         "freq_value":"567.0"
      },
      "geometry":{
         "type":"Point",
         "coordinates":[
            124.243,
            7.22301
         ]
      }
   },
   {
      "type":"Feature",
      "properties":{
         "name":"Cagayan De Oro City, Misamis Oriental - Nationwide",
         "freq_value":"972.0"
      },
      "geometry":{
         "type":"Point",
         "coordinates":[
            124.649,
            8.48514
         ]
      }
   },
   {
      "type":"Feature",
      "properties":{
         "name":"Lucena City, Quezon - Nationwide",
         "freq_value":"1224.0"
      },
      "geometry":{
         "type":"Point",
         "coordinates":[
            121.651,
            13.9353
         ]
      }
   },
   {
      "type":"Feature",
      "properties":{
         "name":"Lucena City, Quezon - Nationwide",
         "freq_value":"1224.0"
      },
      "geometry":{
         "type":"Point",
         "coordinates":[
            121.612,
            13.9353
         ]
      }
   },
   {
      "type":"Feature",
      "properties":{
         "name":"Iloilo - Nationwide",
         "freq_value":"1485.0"
      },
      "geometry":{
         "type":"Point",
         "coordinates":[
            122.571,
            10.6969
         ]
      }
   },
   {
      "type":"Feature",
      "properties":{
         "name":"DZRH - Bacolod - Nationwide",
         "freq_value":"1080.0"
      },
      "geometry":{
         "type":"Point",
         "coordinates":[
            122.951,
            10.6784
         ]
      }
   },
   {
      "type":"Feature",
      "properties":{
         "name":"DYRH - Cebu - Nationwide",
         "freq_value":"1395.0"
      },
      "geometry":{
         "type":"Point",
         "coordinates":[
            123.895,
            10.3101
         ]
      }
   },
   {
      "type":"Feature",
      "properties":{
         "name":"DZRH - Kalibo - Nationwide",
         "freq_value":"693.0"
      },
      "geometry":{
         "type":"Point",
         "coordinates":[
            122.368,
            11.7091
         ]
      }
   },
   {
      "type":"Feature",
      "properties":{
         "name":"DZRH - Tuguegarao City, Cagayan - Nationwide",
         "freq_value":"576.0"
      },
      "geometry":{
         "type":"Point",
         "coordinates":[
            121.733,
            17.6167
         ]
      }
   },
   {
      "type":"Feature",
      "properties":{
         "name":"DZRH - Santiago City, Isabela - Nationwide",
         "freq_value":"648.0"
      },
      "geometry":{
         "type":"Point",
         "coordinates":[
            121.554,
            16.715
         ]
      }
   },
   {
      "type":"Feature",
      "properties":{
         "name":"DZRH - Baguio City, Benguet - Nationwide",
         "freq_value":"612.0"
      },
      "geometry":{
         "type":"Point",
         "coordinates":[
            120.594,
            16.4116
         ]
      }
   },
   {
      "type":"Feature",
      "properties":{
         "name":"DZRH - Dagupan City, Pangasinan - Nationwide",
         "freq_value":"1440.0"
      },
      "geometry":{
         "type":"Point",
         "coordinates":[
            120.332,
            16.0284
         ]
      }
   },
   {
      "type":"Feature",
      "properties":{
         "name":"DZRH - Kalibo, Aklan - Nationwide",
         "freq_value":"693.0"
      },
      "geometry":{
         "type":"Point",
         "coordinates":[
            122.368,
            11.7091
         ]
      }
   },
   {
      "type":"Feature",
      "properties":{
         "name":"DZSD - Dagupan City, Pangasinan - DZSD Super Radyo 1548",
         "freq_value":"1548.0"
      },
      "geometry":{
         "type":"Point",
         "coordinates":[
            120.332,
            16.0284
         ]
      }
   },
   {
      "type":"Feature",
      "properties":{
         "name":"DZTC - Tarlac City, Tarlac - DZTC 828 Radyo Pilipino",
         "freq_value":"828.0"
      },
      "geometry":{
         "type":"Point",
         "coordinates":[
            120.583,
            15.4833
         ]
      }
   },
   {
      "type":"Feature",
      "properties":{
         "name":"DZTG - Tuguegarao City, Cagayan - DZTG Radyo Ronda 621",
         "freq_value":"621.0"
      },
      "geometry":{
         "type":"Point",
         "coordinates":[
            121.733,
            17.6167
         ]
      }
   },
   {
      "type":"Feature",
      "properties":{
         "name":"DZUP - Metro Manila - DZUP",
         "freq_value":"1602.0"
      },
      "geometry":{
         "type":"Point",
         "coordinates":[
            121.05,
            14.6495
         ]
      }
   },
   {
      "type":"Feature",
      "properties":{
         "name":"DZVC-AM - Virac, Catanduanes - DZVC-AM",
         "freq_value":"621.0"
      },
      "geometry":{
         "type":"Point",
         "coordinates":[
            124.234,
            13.5907
         ]
      }
   },
   {
      "type":"Feature",
      "properties":{
         "name":"DZWM - Alaminos City, Pangasinan - DZWM Radyo Totoo 891",
         "freq_value":"891.0"
      },
      "geometry":{
         "type":"Point",
         "coordinates":[
            119.98,
            16.1568
         ]
      }
   },
   {
      "type":"Feature",
      "properties":{
         "name":"DZWT - Baguio City, Benguet - DZWT 540",
         "freq_value":"540.0"
      },
      "geometry":{
         "type":"Point",
         "coordinates":[
            120.594,
            16.4116
         ]
      }
   },
   {
      "type":"Feature",
      "properties":{
         "name":"DZXL - Metro Manila - DZXL Radyo Mo Nationwide!",
         "freq_value":"558.0"
      },
      "geometry":{
         "type":"Point",
         "coordinates":[
            121.033,
            14.5667
         ]
      }
   },
   {
      "type":"Feature",
      "properties":{
         "name":"DYFX - Talisay, Cebu - Eagle BC",
         "freq_value":"1305.0"
      },
      "geometry":{
         "type":"Point",
         "coordinates":[
            124.067,
            11.25
         ]
      }
   },
   {
      "type":"Feature",
      "properties":{
         "name":"DXED-AM - Davao City - Eagle BC",
         "freq_value":"1224.0"
      },
      "geometry":{
         "type":"Point",
         "coordinates":[
            125.613,
            7.07996
         ]
      }
   },
   {
      "type":"Feature",
      "properties":{
         "name":"DZEL-AM - Lucena City, Quezon - Eagle BC",
         "freq_value":"1260.0"
      },
      "geometry":{
         "type":"Point",
         "coordinates":[
            121.651,
            13.9353
         ]
      }
   },
   {
      "type":"Feature",
      "properties":{
         "name":"DXIP-AM - Davao City - El Nuevo Bantay Radyo",
         "freq_value":"900.0"
      },
      "geometry":{
         "type":"Point",
         "coordinates":[
            125.613,
            7.07996
         ]
      }
   },
   {
      "type":"Feature",
      "properties":{
         "name":"DWSS - Metro Manila - Entertainment Radio",
         "freq_value":"1494.0"
      },
      "geometry":{
         "type":"Point",
         "coordinates":[
            121.033,
            14.5833
         ]
      }
   },
   {
      "type":"Feature",
      "properties":{
         "name":"DYER-AM - Puerto Princesa City, Palawan - Environment Radio",
         "freq_value":"828.0"
      },
      "geometry":{
         "type":"Point",
         "coordinates":[
            118.733,
            9.7333
         ]
      }
   },
   {
      "type":"Feature",
      "properties":{
         "name":"DYVS - Bacolod City, Negros Occidental - Far East BC",
         "freq_value":"1233.0"
      },
      "geometry":{
         "type":"Point",
         "coordinates":[
            122.951,
            10.6784
         ]
      }
   },
   {
      "type":"Feature",
      "properties":{
         "name":"DXAS-AM - Zamboanga City - Far East BC",
         "freq_value":"1116.0"
      },
      "geometry":{
         "type":"Point",
         "coordinates":[
            122.063,
            6.91136
         ]
      }
   },
   {
      "type":"Feature",
      "properties":{
         "name":"DXKI-AM - Koronadal City, South Cotabato - Far East BC",
         "freq_value":"1062.0"
      },
      "geometry":{
         "type":"Point",
         "coordinates":[
            124.846,
            6.50139
         ]
      }
   },
   {
      "type":"Feature",
      "properties":{
         "name":"DWA</a Legazpi City, Albay - Far East BC",
         "freq_value":"1125.0"
      },
      "geometry":{
         "type":"Point",
         "coordinates":[
            123.745,
            13.1363
         ]
      }
   },
   {
      "type":"Feature",
      "properties":{
         "name":"Pinamalayan, Mindoro Oriental - Far East BC",
         "freq_value":"1539.0"
      },
      "geometry":{
         "type":"Point",
         "coordinates":[
            121.478,
            13.039
         ]
      }
   },
   {
      "type":"Feature",
      "properties":{
         "name":"Davao City - Far East BC",
         "freq_value":"1197.0"
      },
      "geometry":{
         "type":"Point",
         "coordinates":[
            125.613,
            7.07996
         ]
      }
   },
   {
      "type":"Feature",
      "properties":{
         "name":"Santiago City, Isabela - Far East BC",
         "freq_value":"1143.0"
      },
      "geometry":{
         "type":"Point",
         "coordinates":[
            121.554,
            16.715
         ]
      }
   },
   {
      "type":"Feature",
      "properties":{
         "name":"DZRC - Legazpi City, Albay - Filipinas Broadcasting Network",
         "freq_value":"873.0"
      },
      "geometry":{
         "type":"Point",
         "coordinates":[
            123.745,
            13.1363
         ]
      }
   },
   {
      "type":"Feature",
      "properties":{
         "name":"DXRH-AM - Zamboanga City - First BC",
         "freq_value":"1080.0"
      },
      "geometry":{
         "type":"Point",
         "coordinates":[
            122.063,
            6.91136
         ]
      }
   },
   {
      "type":"Feature",
      "properties":{
         "name":"Calbayog City, Samar - GMA Network",
         "freq_value":"1476.0"
      },
      "geometry":{
         "type":"Point",
         "coordinates":[
            125.012,
            11.8016
         ]
      }
   },
   {
      "type":"Feature",
      "properties":{
         "name":"DWGO - Olongapo City, Zambales - GO AM 1008",
         "freq_value":"1008.0"
      },
      "geometry":{
         "type":"Point",
         "coordinates":[
            120.283,
            14.8308
         ]
      }
   },
   {
      "type":"Feature",
      "properties":{
         "name":"DWGV - Angeles City, Pampanga - GVAM 792",
         "freq_value":"792.0"
      },
      "geometry":{
         "type":"Point",
         "coordinates":[
            120.593,
            15.1432
         ]
      }
   },
   {
      "type":"Feature",
      "properties":{
         "name":"DWXI - Metro Manila - Himpilang Pinagpala",
         "freq_value":"1314.0"
      },
      "geometry":{
         "type":"Point",
         "coordinates":[
            121.033,
            14.5667
         ]
      }
   },
   {
      "type":"Feature",
      "properties":{
         "name":"Calbayog City, Samar - Hypersonic",
         "freq_value":"1089.0"
      },
      "geometry":{
         "type":"Point",
         "coordinates":[
            125.012,
            11.8016
         ]
      }
   },
   {
      "type":"Feature",
      "properties":{
         "name":"Sorsogon City, Sorsogon - Hypersonic",
         "freq_value":"801.0"
      },
      "geometry":{
         "type":"Point",
         "coordinates":[
            124.007,
            12.9767
         ]
      }
   },
   {
      "type":"Feature",
      "properties":{
         "name":"Roxas, Isabela - Iddes Broadcast Corp.",
         "freq_value":"1071.0"
      },
      "geometry":{
         "type":"Point",
         "coordinates":[
            121.632,
            17.158
         ]
      }
   },
   {
      "type":"Feature",
      "properties":{
         "name":"DWAR - Ilocos Norte - iFM",
         "freq_value":"819.0"
      },
      "geometry":{
         "type":"Point",
         "coordinates":[
            120.593,
            18.1981
         ]
      }
   },
   {
      "type":"Feature",
      "properties":{
         "name":"DYSJ-AM -Antique - Intercontinental BC",
         "freq_value":"1359.0"
      },
      "geometry":{
         "type":"Point",
         "coordinates":[
            121.944,
            10.7548
         ]
      }
   },
   {
      "type":"Feature",
      "properties":{
         "name":"DWGW-AM -Lengazpi City, Albay - Intercontinental BC",
         "freq_value":"684.0"
      },
      "geometry":{
         "type":"Point",
         "coordinates":[
            123.745,
            13.1363
         ]
      }
   },
   {
      "type":"Feature",
      "properties":{
         "name":"DYJJ-AM -Roxas City, Capiz - Intercontinental BC",
         "freq_value":"1296.0"
      },
      "geometry":{
         "type":"Point",
         "coordinates":[
            122.756,
            11.5852
         ]
      }
   },
   {
      "type":"Feature",
      "properties":{
         "name":"DZKV-AM - Lipa City, Batangas - Kaissar BN Inc.",
         "freq_value":"1548.0"
      },
      "geometry":{
         "type":"Point",
         "coordinates":[
            121.165,
            13.9413
         ]
      }
   },
   {
      "type":"Feature",
      "properties":{
         "name":"DXKT-AM - Davao City - Kalyaan BS",
         "freq_value":"1071.0"
      },
      "geometry":{
         "type":"Point",
         "coordinates":[
            125.613,
            7.07996
         ]
      }
   },
   {
      "type":"Feature",
      "properties":{
         "name":"DWAM-AM - Batangas City, Batangas - Katibag Enterprises",
         "freq_value":"1080.0"
      },
      "geometry":{
         "type":"Point",
         "coordinates":[
            121.065,
            13.7659
         ]
      }
   },
   {
      "type":"Feature",
      "properties":{
         "name":"Mindanao - Davao - Kingdom Radio",
         "freq_value":"1404.0"
      },
      "geometry":{
         "type":"Point",
         "coordinates":[
            125.613,
            7.07996
         ]
      }
   },
   {
      "type":"Feature",
      "properties":{
         "name":"DXIQ - Malaybalay City, Bukidnon - Love Radio",
         "freq_value":"106.3"
      },
      "geometry":{
         "type":"Point",
         "coordinates":[
            125.132,
            8.16016
         ]
      }
   },
   {
      "type":"Feature",
      "properties":{
         "name":"DWLW - Ilocos Norte - Love Radio",
         "freq_value":"675.0"
      },
      "geometry":{
         "type":"Point",
         "coordinates":[
            120.593,
            18.1981
         ]
      }
   },
   {
      "type":"Feature",
      "properties":{
         "name":"DZRH - Metro Manila - DZRH Nationwide",
         "freq_value":"666.0"
      },
      "geometry":{
         "type":"Point",
         "coordinates":[
            121,
            14.55
         ]
      }
   },
   {
      "type":"Feature",
      "properties":{
         "name":"DZMT - Ilocos Norte - DZRH Nationwide",
         "freq_value":"990.0"
      },
      "geometry":{
         "type":"Point",
         "coordinates":[
            120.593,
            18.1981
         ]
      }
   },
   {
      "type":"Feature",
      "properties":{
         "name":"DXAJ-FM - Koronadal City, South Cotabato - DZRH Nationwide",
         "freq_value":"1215.0"
      },
      "geometry":{
         "type":"Point",
         "coordinates":[
            124.846,
            6.50139
         ]
      }
   },
   {
      "type":"Feature",
      "properties":{
         "name":"DXPH-AM - Prosperidad, Agusan Del Norte - DZRH Nationwide",
         "freq_value":"1251.0"
      },
      "geometry":{
         "type":"Point",
         "coordinates":[
            125.9,
            8.58331
         ]
      }
   },
   {
      "type":"Feature",
      "properties":{
         "name":"DXPH-AM - Prosperidad, Agusan Del Sur - DZRH Nationwide",
         "freq_value":"1251.0"
      },
      "geometry":{
         "type":"Point",
         "coordinates":[
            125.9,
            8.58331
         ]
      }
   },
   {
      "type":"Feature",
      "properties":{
         "name":"Legazpi City, Albay - DZRH Nationwide",
         "freq_value":"1305.0"
      },
      "geometry":{
         "type":"Point",
         "coordinates":[
            123.745,
            13.1363
         ]
      }
   },
   {
      "type":"Feature",
      "properties":{
         "name":"Naga City, Camarines Sur - DZRH Nationwide",
         "freq_value":"1359.0"
      },
      "geometry":{
         "type":"Point",
         "coordinates":[
            123.178,
            13.6162
         ]
      }
   },
   {
      "type":"Feature",
      "properties":{
         "name":"DZZH-AM - Sorsogon City, Sorsogon - DZRH Nationwide",
         "freq_value":"1287.0"
      },
      "geometry":{
         "type":"Point",
         "coordinates":[
            124.007,
            12.9767
         ]
      }
   },
   {
      "type":"Feature",
      "properties":{
         "name":"DYPH-AM - Puerto Princesa City, Palawan - DZRH Nationwide",
         "freq_value":"693.0"
      },
      "geometry":{
         "type":"Point",
         "coordinates":[
            118.733,
            9.7333
         ]
      }
   },
   {
      "type":"Feature",
      "properties":{
         "name":"Santiago City, Isabela - DZRH Nationwide",
         "freq_value":"1476.0"
      },
      "geometry":{
         "type":"Point",
         "coordinates":[
            121.554,
            16.715
         ]
      }
   },
   {
      "type":"Feature",
      "properties":{
         "name":"DYME-AM - Masbate City, Masbate - Masbate Community Broadcasting Company",
         "freq_value":"783.0"
      },
      "geometry":{
         "type":"Point",
         "coordinates":[
            123.628,
            12.3562
         ]
      }
   },
   {
      "type":"Feature",
      "properties":{
         "name":"DXSA-AM - Marawi, Lanao Del Sur - Mindanao BC",
         "freq_value":"1449.0"
      },
      "geometry":{
         "type":"Point",
         "coordinates":[
            124.294,
            7.99855
         ]
      }
   },
   {
      "type":"Feature",
      "properties":{
         "name":"Valencia, Bukidnon - Mountainview College",
         "freq_value":"96.9"
      },
      "geometry":{
         "type":"Point",
         "coordinates":[
            125.083,
            7.9167
         ]
      }
   },
   {
      "type":"Feature",
      "properties":{
         "name":"DWTT - Tarlac City, Tarlac - Nation BC",
         "freq_value":"1368.0"
      },
      "geometry":{
         "type":"Point",
         "coordinates":[
            120.583,
            15.4833
         ]
      }
   },
   {
      "type":"Feature",
      "properties":{
         "name":"DYSR - Dumaguete City, Negros Oriental - National Council of Churches of the Philippines",
         "freq_value":"891.0"
      },
      "geometry":{
         "type":"Point",
         "coordinates":[
            123.311,
            9.3073
         ]
      }
   },
   {
      "type":"Feature",
      "properties":{
         "name":"DXOR-AM - Cagayan De Oro City, Misamis Oriental - Newsound BC",
         "freq_value":"729.0"
      },
      "geometry":{
         "type":"Point",
         "coordinates":[
            124.649,
            8.48514
         ]
      }
   },
   {
      "type":"Feature",
      "properties":{
         "name":"DYWR-AM - Santo Nino Corner Imelda Avenue, Tacloban City, Leyte - Newsound BN",
         "freq_value":"594.0"
      },
      "geometry":{
         "type":"Point",
         "coordinates":[
            125.002,
            11.2407
         ]
      }
   },
   {
      "type":"Feature",
      "properties":{
         "name":"DYCX-AM - Antique - Newsound BN",
         "freq_value":"1179.0"
      },
      "geometry":{
         "type":"Point",
         "coordinates":[
            121.944,
            10.7548
         ]
      }
   },
   {
      "type":"Feature",
      "properties":{
         "name":"DXND-AM - Kidapawan City, Cotabato Province - Notre Dame BC",
         "freq_value":"747.0"
      },
      "geometry":{
         "type":"Point",
         "coordinates":[
            125.087,
            7.01112
         ]
      }
   },
   {
      "type":"Feature",
      "properties":{
         "name":"DXOL-FM - Cotabato City, Maguindanao - Notre Dame BC",
         "freq_value":"882.0"
      },
      "geometry":{
         "type":"Point",
         "coordinates":[
            124.243,
            7.22301
         ]
      }
   },
   {
      "type":"Feature",
      "properties":{
         "name":"DZFA - Mabalacat, Pampanga - NS Network Mngt.",
         "freq_value":"1540.0"
      },
      "geometry":{
         "type":"Point",
         "coordinates":[
            120.567,
            15.2167
         ]
      }
   },
   {
      "type":"Feature",
      "properties":{
         "name":"DZOM-AM - Calapan City, Mindoro Oriental - Omarco",
         "freq_value":"1107.0"
      },
      "geometry":{
         "type":"Point",
         "coordinates":[
            120.928,
            12.8698
         ]
      }
   },
   {
      "type":"Feature",
      "properties":{
         "name":"DYRR-AM - Bantigue, Ormoc City, 6541 Leyte - Ormoc BC",
         "freq_value":"792.0"
      },
      "geometry":{
         "type":"Point",
         "coordinates":[
            124.617,
            11.007
         ]
      }
   },
   {
      "type":"Feature",
      "properties":{
         "name":"Valencia, Bukidnon - Oro BN",
         "freq_value":"90.5"
      },
      "geometry":{
         "type":"Point",
         "coordinates":[
            125.083,
            7.9167
         ]
      }
   },
   {
      "type":"Feature",
      "properties":{
         "name":"DYBH - Bacolod City, Negros Occidental - Pacific BS Inc.",
         "freq_value":"1080.0"
      },
      "geometry":{
         "type":"Point",
         "coordinates":[
            122.951,
            10.6784
         ]
      }
   },
   {
      "type":"Feature",
      "properties":{
         "name":"DYPR-AM - Puerto Princesa City, Palawan - Palawan BC",
         "freq_value":"765.0"
      },
      "geometry":{
         "type":"Point",
         "coordinates":[
            118.733,
            9.7333
         ]
      }
   },
   {
      "type":"Feature",
      "properties":{
         "name":"DZMS-AM - Sorsogon City, Sorsogon - PBN BN Inc.",
         "freq_value":"1251.0"
      },
      "geometry":{
         "type":"Point",
         "coordinates":[
            124.007,
            12.9767
         ]
      }
   },
   {
      "type":"Feature",
      "properties":{
         "name":"DXGL-AM - Butuan City, Agusan Del Norte - PEC",
         "freq_value":"1125.0"
      },
      "geometry":{
         "type":"Point",
         "coordinates":[
            125.555,
            8.95003
         ]
      }
   },
   {
      "type":"Feature",
      "properties":{
         "name":"Subic, Zambales - Philippine BS",
         "freq_value":"1692.0"
      },
      "geometry":{
         "type":"Point",
         "coordinates":[
            120.239,
            14.8858
         ]
      }
   },
   {
      "type":"Feature",
      "properties":{
         "name":"DXRG-AM - Philippine BS",
         "freq_value":"882.0"
      },
      "geometry":{
         "type":"Point",
         "coordinates":[
            125.103,
            8.82091
         ]
      }
   },
   {
      "type":"Feature",
      "properties":{
         "name":"DWBF-AM - Virac, Catanduanes - Philippine BS",
         "freq_value":"1224.0"
      },
      "geometry":{
         "type":"Point",
         "coordinates":[
            124.234,
            13.5907
         ]
      }
   },
   {
      "type":"Feature",
      "properties":{
         "name":"DYMP-AM - Palo, Leyte - Philippine BS",
         "freq_value":"1566.0"
      },
      "geometry":{
         "type":"Point",
         "coordinates":[
            124.995,
            11.1576
         ]
      }
   },
   {
      "type":"Feature",
      "properties":{
         "name":"DYBR-AM - Sagcahan Road, Tacloban City, 6500 Leyte - Philippine Collective media corp.",
         "freq_value":"711.0"
      },
      "geometry":{
         "type":"Point",
         "coordinates":[
            125.002,
            11.2407
         ]
      }
   },
   {
      "type":"Feature",
      "properties":{
         "name":"DZYR-AM - San Fernando City, La Union - Philippine Radio Corp",
         "freq_value":"1359.0"
      },
      "geometry":{
         "type":"Point",
         "coordinates":[
            120.319,
            16.617
         ]
      }
   },
   {
      "type":"Feature",
      "properties":{
         "name":"DWRN-AM - Naga City, Camarines Sur - Philippine Radio Corp",
         "freq_value":"657.0"
      },
      "geometry":{
         "type":"Point",
         "coordinates":[
            123.178,
            13.6162
         ]
      }
   },
   {
      "type":"Feature",
      "properties":{
         "name":"Cebu City, Cebu - Prime BN",
         "freq_value":"846.0"
      },
      "geometry":{
         "type":"Point",
         "coordinates":[
            123.895,
            10.3101
         ]
      }
   },
   {
      "type":"Feature",
      "properties":{
         "name":"Cebu City, Cebu - Radio Cebu",
         "freq_value":"648.0"
      },
      "geometry":{
         "type":"Point",
         "coordinates":[
            123.895,
            10.3101
         ]
      }
   },
   {
      "type":"Feature",
      "properties":{
         "name":"Butuan City, Agusan Del Norte - Radio Corp. of the Philippines",
         "freq_value":"756.0"
      },
      "geometry":{
         "type":"Point",
         "coordinates":[
            125.555,
            8.95003
         ]
      }
   },
   {
      "type":"Feature",
      "properties":{
         "name":"Tarlac City, Tarlac - Radio Corp. of the Philippines",
         "freq_value":"936.0"
      },
      "geometry":{
         "type":"Point",
         "coordinates":[
            120.583,
            15.4833
         ]
      }
   },
   {
      "type":"Feature",
      "properties":{
         "name":"Ozamis City, Misamis Occidental - Radio Inc",
         "freq_value":"1494.0"
      },
      "geometry":{
         "type":"Point",
         "coordinates":[
            123.841,
            8.14601
         ]
      }
   },
   {
      "type":"Feature",
      "properties":{
         "name":"Cebu City, Cebu - Radio Inc",
         "freq_value":"540.0"
      },
      "geometry":{
         "type":"Point",
         "coordinates":[
            123.895,
            10.3101
         ]
      }
   },
   {
      "type":"Feature",
      "properties":{
         "name":"DXAD-AM - Marawi, Lanao Del Sur - Radio Ranao",
         "freq_value":"1322.0"
      },
      "geometry":{
         "type":"Point",
         "coordinates":[
            124.294,
            7.99855
         ]
      }
   },
   {
      "type":"Feature",
      "properties":{
         "name":"DZXO - Cabanatuan City, Nueva Ecija - Radio Vanguard 1188",
         "freq_value":"1188.0"
      },
      "geometry":{
         "type":"Point",
         "coordinates":[
            120.975,
            15.4874
         ]
      }
   },
   {
      "type":"Feature",
      "properties":{
         "name":"DYSA - Iloilo City, Iloilo - Radio Veristas Global",
         "freq_value":"1053.0"
      },
      "geometry":{
         "type":"Point",
         "coordinates":[
            122.571,
            10.6969
         ]
      }
   },
   {
      "type":"Feature",
      "properties":{
         "name":"DZEL - Lucena City, Quezon - Radyo Agila Lucena 1053",
         "freq_value":"1053.0"
      },
      "geometry":{
         "type":"Point",
         "coordinates":[
            121.612,
            13.9353
         ]
      }
   },
   {
      "type":"Feature",
      "properties":{
         "name":"DXDC-AM - Davao City - Radyo Agong",
         "freq_value":"621.0"
      },
      "geometry":{
         "type":"Point",
         "coordinates":[
            125.613,
            7.07996
         ]
      }
   },
   {
      "type":"Feature",
      "properties":{
         "name":"DXDR - Dipolog City, Zamboanga Del Norte - Radyo Agong",
         "freq_value":"981.0"
      },
      "geometry":{
         "type":"Point",
         "coordinates":[
            123.347,
            8.59201
         ]
      }
   },
   {
      "type":"Feature",
      "properties":{
         "name":"DXRZ-AM - Zamboanga City - Radyo Agong",
         "freq_value":"900.0"
      },
      "geometry":{
         "type":"Point",
         "coordinates":[
            122.063,
            6.91136
         ]
      }
   },
   {
      "type":"Feature",
      "properties":{
         "name":"DXMD-AM - General Santos City, South Cotabato - Radyo Agong",
         "freq_value":"927.0"
      },
      "geometry":{
         "type":"Point",
         "coordinates":[
            125.197,
            6.12918
         ]
      }
   },
   {
      "type":"Feature",
      "properties":{
         "name":"DXBC-AM - Butuan City, Agusan Del Norte - Radyo Agong",
         "freq_value":"693.0"
      },
      "geometry":{
         "type":"Point",
         "coordinates":[
            125.555,
            8.95003
         ]
      }
   },
   {
      "type":"Feature",
      "properties":{
         "name":"DXIC-AM - Iligan City, Lanao Del Norte - Radyo Agong",
         "freq_value":"711.0"
      },
      "geometry":{
         "type":"Point",
         "coordinates":[
            124.246,
            8.23217
         ]
      }
   },
   {
      "type":"Feature",
      "properties":{
         "name":"DXCC-AM - Cagayan De Oro City, Misamis Oriental - Radyo Agong",
         "freq_value":"828.0"
      },
      "geometry":{
         "type":"Point",
         "coordinates":[
            124.649,
            8.48514
         ]
      }
   },
   {
      "type":"Feature",
      "properties":{
         "name":"DXRS-AM - Surigao City, Surigao Del Norte - Radyo Agong",
         "freq_value":"1206.0"
      },
      "geometry":{
         "type":"Point",
         "coordinates":[
            125.446,
            9.79304
         ]
      }
   },
   {
      "type":"Feature",
      "properties":{
         "name":"DYVR-AM - Roxas City, Capiz - Radyo Agong",
         "freq_value":"657.0"
      },
      "geometry":{
         "type":"Point",
         "coordinates":[
            122.756,
            11.5852
         ]
      }
   },
   {
      "type":"Feature",
      "properties":{
         "name":"DXDA-AM - Prosperidad, Agusan Del Sur - Radyo Agusan",
         "freq_value":"927.0"
      },
      "geometry":{
         "type":"Point",
         "coordinates":[
            125.9,
            8.58331
         ]
      }
   },
   {
      "type":"Feature",
      "properties":{
         "name":"DXRA-AM - Davao City - Radyo Arangkada",
         "freq_value":"783.0"
      },
      "geometry":{
         "type":"Point",
         "coordinates":[
            125.613,
            7.07996
         ]
      }
   },
   {
      "type":"Feature",
      "properties":{
         "name":"DXOW-AM - Davao City - Radyo Asenso",
         "freq_value":"981.0"
      },
      "geometry":{
         "type":"Point",
         "coordinates":[
            125.613,
            7.07996
         ]
      }
   },
   {
      "type":"Feature",
      "properties":{
         "name":"DXGS-AM - General Santos City, South Cotabato - Radyo Asenso",
         "freq_value":"765.0"
      },
      "geometry":{
         "type":"Point",
         "coordinates":[
            125.197,
            6.12918
         ]
      }
   },
   {
      "type":"Feature",
      "properties":{
         "name":"DXCO-AM - Cagayan De Oro City, Misamis Oriental - Radyo Asenso",
         "freq_value":"1044.0"
      },
      "geometry":{
         "type":"Point",
         "coordinates":[
            124.649,
            8.48514
         ]
      }
   },
   {
      "type":"Feature",
      "properties":{
         "name":"DZYA-AM - Angeles City, Pampanga - Radyo Asenso",
         "freq_value":"1467.0"
      },
      "geometry":{
         "type":"Point",
         "coordinates":[
            120.593,
            15.1432
         ]
      }
   },
   {
      "type":"Feature",
      "properties":{
         "name":"DYRM - Dumaguete City, Negros Oriental - Radyo Asenso",
         "freq_value":"1134.0"
      },
      "geometry":{
         "type":"Point",
         "coordinates":[
            123.311,
            9.3073
         ]
      }
   },
   {
      "type":"Feature",
      "properties":{
         "name":"DXBZ-AM - Pagadian City, Zamboanga Del Sur - Radyo Bagting",
         "freq_value":"756.0"
      },
      "geometry":{
         "type":"Point",
         "coordinates":[
            123.425,
            7.8238
         ]
      }
   },
   {
      "type":"Feature",
      "properties":{
         "name":"DZBR-AM - Batangas City, Batangas - Radyo Balisong",
         "freq_value":"531.0"
      },
      "geometry":{
         "type":"Point",
         "coordinates":[
            121.065,
            13.7659
         ]
      }
   },
   {
      "type":"Feature",
      "properties":{
         "name":"DYWC-AM - Dumaguete City, Negros Oriental - Radyo Bandilyo",
         "freq_value":"801.0"
      },
      "geometry":{
         "type":"Point",
         "coordinates":[
            123.311,
            9.3073
         ]
      }
   },
   {
      "type":"Feature",
      "properties":{
         "name":"DWNW-AM - Naga City, Camarines Sur - Radyo Budyong",
         "freq_value":"756.0"
      },
      "geometry":{
         "type":"Point",
         "coordinates":[
            123.178,
            13.6162
         ]
      }
   },
   {
      "type":"Feature",
      "properties":{
         "name":"Maguikay, Mandaue City - Radyo Budyong",
         "freq_value":"864.0"
      },
      "geometry":{
         "type":"Point",
         "coordinates":[
            123.933,
            10.3333
         ]
      }
   },
   {
      "type":"Feature",
      "properties":{
         "name":"Iloilo - Radyo Budyong",
         "freq_value":"981.0"
      },
      "geometry":{
         "type":"Point",
         "coordinates":[
            122.571,
            10.6969
         ]
      }
   },
   {
      "type":"Feature",
      "properties":{
         "name":"DYRG-AM - Kalibo, Aklan - Radyo Budyong",
         "freq_value":"1251.0"
      },
      "geometry":{
         "type":"Point",
         "coordinates":[
            122.368,
            11.7091
         ]
      }
   },
   {
      "type":"Feature",
      "properties":{
         "name":"DYDW - Burayan, San Jose, Tacloban City, 6500 Leyte - Radyo Diwa",
         "freq_value":"531.0"
      },
      "geometry":{
         "type":"Point",
         "coordinates":[
            125.002,
            11.2407
         ]
      }
   },
   {
      "type":"Feature",
      "properties":{
         "name":"DZIQ - Metro Manila - Radyo Inquirer",
         "freq_value":"990.0"
      },
      "geometry":{
         "type":"Point",
         "coordinates":[
            121.033,
            14.5667
         ]
      }
   },
   {
      "type":"Feature",
      "properties":{
         "name":"DZLW-AM - Naga City, Camarines Sur - Radyo Isarog",
         "freq_value":"711.0"
      },
      "geometry":{
         "type":"Point",
         "coordinates":[
            123.178,
            13.6162
         ]
      }
   },
   {
      "type":"Feature",
      "properties":{
         "name":"DXDD-AM - Ozamis City, Misamis Occidental - Radyo Kampana",
         "freq_value":"657.0"
      },
      "geometry":{
         "type":"Point",
         "coordinates":[
            123.841,
            8.14601
         ]
      }
   },
   {
      "type":"Feature",
      "properties":{
         "name":"DZRM - Metro Manila - Radyo Magasin",
         "freq_value":"1278.0"
      },
      "geometry":{
         "type":"Point",
         "coordinates":[
            121.05,
            14.6495
         ]
      }
   },
   {
      "type":"Feature",
      "properties":{
         "name":"DXSN - Surigao City, Surigao Del Norte - Radyo Magbalantay",
         "freq_value":"1017.0"
      },
      "geometry":{
         "type":"Point",
         "coordinates":[
            125.446,
            9.79304
         ]
      }
   },
   {
      "type":"Feature",
      "properties":{
         "name":"DZBF - Metro Manila - Radyo Marikina",
         "freq_value":"1674.0"
      },
      "geometry":{
         "type":"Point",
         "coordinates":[
            121.094,
            14.6193
         ]
      }
   },
   {
      "type":"Feature",
      "properties":{
         "name":"DZRC - Legazpi City, Albay - Radyo Mayon 783",
         "freq_value":"783.0"
      },
      "geometry":{
         "type":"Point",
         "coordinates":[
            123.745,
            13.1363
         ]
      }
   },
   {
      "type":"Feature",
      "properties":{
         "name":"DWIM-AM - Calapan City, Mindoro Oriental - Radyo Mindoro",
         "freq_value":"936.0"
      },
      "geometry":{
         "type":"Point",
         "coordinates":[
            120.928,
            12.8698
         ]
      }
   },
   {
      "type":"Feature",
      "properties":{
         "name":"DYRP-FM - Antique - Radyo Natin",
         "freq_value":"90.5"
      },
      "geometry":{
         "type":"Point",
         "coordinates":[
            121.998,
            10.9162
         ]
      }
   },
   {
      "type":"Feature",
      "properties":{
         "name":"DWMI-AM - Calapan City, Mindoro Oriental - Radyo Natin",
         "freq_value":"999.0"
      },
      "geometry":{
         "type":"Point",
         "coordinates":[
            120.928,
            12.8698
         ]
      }
   },
   {
      "type":"Feature",
      "properties":{
         "name":"DWMC - Kalinga - Radyo Natin",
         "freq_value":"1323.0"
      },
      "geometry":{
         "type":"Point",
         "coordinates":[
            121.444,
            17.4134
         ]
      }
   },
   {
      "type":"Feature",
      "properties":{
         "name":"DXMR-AM - Zamboanga City - Radyo ng Bayan",
         "freq_value":"1170.0"
      },
      "geometry":{
         "type":"Point",
         "coordinates":[
            122.063,
            6.91136
         ]
      }
   },
   {
      "type":"Feature",
      "properties":{
         "name":"DWPT - Batanes - Radyo ng Bayan",
         "freq_value":"1134.0"
      },
      "geometry":{
         "type":"Point",
         "coordinates":[
            121.967,
            20.45
         ]
      }
   },
   {
      "type":"Feature",
      "properties":{
         "name":"DZRK - Mountain Province - Radyo ng Bayan",
         "freq_value":"972.0"
      },
      "geometry":{
         "type":"Point",
         "coordinates":[
            120.977,
            17.0896
         ]
      }
   },
   {
      "type":"Feature",
      "properties":{
         "name":"DZER-AM - Boac, Marinduque - Radyo ng Bayan",
         "freq_value":"1350.0"
      },
      "geometry":{
         "type":"Point",
         "coordinates":[
            121.84,
            13.4453
         ]
      }
   },
   {
      "type":"Feature",
      "properties":{
         "name":"DZAG - Agoo, La Union - Radyo ng Bayan",
         "freq_value":"1224.0"
      },
      "geometry":{
         "type":"Point",
         "coordinates":[
            120.367,
            16.3167
         ]
      }
   },
   {
      "type":"Feature",
      "properties":{
         "name":"DZEC - Metro Manila - Radyo ng Pamilya Nationwide",
         "freq_value":"1062.0"
      },
      "geometry":{
         "type":"Point",
         "coordinates":[
            121.05,
            14.6495
         ]
      }
   },
   {
      "type":"Feature",
      "properties":{
         "name":"DWAD - Metro Manila - Radyo Ngayon",
         "freq_value":"1098.0"
      },
      "geometry":{
         "type":"Point",
         "coordinates":[
            121.033,
            14.5833
         ]
      }
   },
   {
      "type":"Feature",
      "properties":{
         "name":"DZOR - Olongapo City, Zambales - Radyo Olongapo",
         "freq_value":"1422.0"
      },
      "geometry":{
         "type":"Point",
         "coordinates":[
            120.283,
            14.8308
         ]
      }
   },
   {
      "type":"Feature",
      "properties":{
         "name":"DWHQ-AM - Radyo Oragon",
         "freq_value":"891.0"
      },
      "geometry":{
         "type":"Point",
         "coordinates":[
            123.178,
            13.6162
         ]
      }
   },
   {
      "type":"Feature",
      "properties":{
         "name":"DZMM - Metro Manila - Radyo Patrol",
         "freq_value":"630.0"
      },
      "geometry":{
         "type":"Point",
         "coordinates":[
            121.05,
            14.6495
         ]
      }
   },
   {
      "type":"Feature",
      "properties":{
         "name":"DYAB - Cebu City, Cebu - Radyo Patrol",
         "freq_value":"1512.0"
      },
      "geometry":{
         "type":"Point",
         "coordinates":[
            123.895,
            10.3101
         ]
      }
   },
   {
      "type":"Feature",
      "properties":{
         "name":"DYRV-AM - Catbalogan, Samar - Radyo Patrol",
         "freq_value":"1188.0"
      },
      "geometry":{
         "type":"Point",
         "coordinates":[
            124.89,
            11.7596
         ]
      }
   },
   {
      "type":"Feature",
      "properties":{
         "name":"Mindanao - Davao - Radyo Patrol",
         "freq_value":"1296.0"
      },
      "geometry":{
         "type":"Point",
         "coordinates":[
            125.613,
            7.07996
         ]
      }
   },
   {
      "type":"Feature",
      "properties":{
         "name":"DWRL - Legazpi City, Albay - Radyo Pilipino 1080",
         "freq_value":"1080.0"
      },
      "geometry":{
         "type":"Point",
         "coordinates":[
            123.745,
            13.1363
         ]
      }
   },
   {
      "type":"Feature",
      "properties":{
         "name":"DZAL-AM - Iriga City, Camarines Sur - Radyo Rinconada",
         "freq_value":"954.0"
      },
      "geometry":{
         "type":"Point",
         "coordinates":[
            123.408,
            13.4189
         ]
      }
   },
   {
      "type":"Feature",
      "properties":{
         "name":"Bacolod - Radyo Ronda",
         "freq_value":"1404.0"
      },
      "geometry":{
         "type":"Point",
         "coordinates":[
            122.951,
            10.6784
         ]
      }
   },
   {
      "type":"Feature",
      "properties":{
         "name":"Zamboanga Del Norte - Diplog City - Radyo Ronda",
         "freq_value":"1053.0"
      },
      "geometry":{
         "type":"Point",
         "coordinates":[
            123.347,
            8.59201
         ]
      }
   },
   {
      "type":"Feature",
      "properties":{
         "name":"DYKW - Binalbagan, Negros Occidental - Radyo Ronda",
         "freq_value":"936.0"
      },
      "geometry":{
         "type":"Point",
         "coordinates":[
            122.864,
            10.1951
         ]
      }
   },
   {
      "type":"Feature",
      "properties":{
         "name":"DXKP-AM - Pagadian City, Zamboanga Del Sur - Radyo Ronda",
         "freq_value":"1377.0"
      },
      "geometry":{
         "type":"Point",
         "coordinates":[
            123.425,
            7.8238
         ]
      }
   },
   {
      "type":"Feature",
      "properties":{
         "name":"DXXX-AM -Zamboanga City - Radyo Ronda",
         "freq_value":"1008.0"
      },
      "geometry":{
         "type":"Point",
         "coordinates":[
            122.063,
            6.91136
         ]
      }
   },
   {
      "type":"Feature",
      "properties":{
         "name":"DXDX-AM - General Santos City, South Cotabato - Radyo Ronda",
         "freq_value":"693.0"
      },
      "geometry":{
         "type":"Point",
         "coordinates":[
            125.197,
            6.12918
         ]
      }
   },
   {
      "type":"Feature",
      "properties":{
         "name":"DXKO - Cagayan De Oro City, Misamis Oriental - Radyo Ronda",
         "freq_value":"1368.0"
      },
      "geometry":{
         "type":"Point",
         "coordinates":[
            124.649,
            8.48514
         ]
      }
   },
   {
      "type":"Feature",
      "properties":{
         "name":"DZKI-AM - Iriga City, Camarines Sur - Radyo Ronda",
         "freq_value":"1332.0"
      },
      "geometry":{
         "type":"Point",
         "coordinates":[
            123.408,
            13.4189
         ]
      }
   },
   {
      "type":"Feature",
      "properties":{
         "name":"DYKC - Cebu City, Cebu - Radyo Ronda",
         "freq_value":"675.0"
      },
      "geometry":{
         "type":"Point",
         "coordinates":[
            123.895,
            10.3101
         ]
      }
   },
   {
      "type":"Feature",
      "properties":{
         "name":"DZBS - Baguio City, Benguet - Radyo Ronda",
         "freq_value":"1368.0"
      },
      "geometry":{
         "type":"Point",
         "coordinates":[
            120.594,
            16.4116
         ]
      }
   },
   {
      "type":"Feature",
      "properties":{
         "name":"DZRL - Ilocos Norte - Radyo Ronda",
         "freq_value":"639.0"
      },
      "geometry":{
         "type":"Point",
         "coordinates":[
            120.562,
            18.0577
         ]
      }
   },
   {
      "type":"Feature",
      "properties":{
         "name":"DWSG - Morong, Rizal - Radyo San Guillermo",
         "freq_value":"648.0"
      },
      "geometry":{
         "type":"Point",
         "coordinates":[
            121.24,
            14.5164
         ]
      }
   },
   {
      "type":"Feature",
      "properties":{
         "name":"DZGE-AM - Naga City, Camarines Sur - Radyo Sanggunian",
         "freq_value":"855.0"
      },
      "geometry":{
         "type":"Point",
         "coordinates":[
            123.178,
            13.6162
         ]
      }
   },
   {
      "type":"Feature",
      "properties":{
         "name":"DZRS-AM - Sorsogon City, Sorsogon - Radyo Sorsogon Network",
         "freq_value":"1179.0"
      },
      "geometry":{
         "type":"Point",
         "coordinates":[
            124.007,
            12.9767
         ]
      }
   },
   {
      "type":"Feature",
      "properties":{
         "name":"DZTP Ilocos Sur - Radyo Tirad Pass",
         "freq_value":"693.0"
      },
      "geometry":{
         "type":"Point",
         "coordinates":[
            120.387,
            17.5746
         ]
      }
   },
   {
      "type":"Feature",
      "properties":{
         "name":"DZXE- Ilocos Sur - Radyo Tirador",
         "freq_value":"837.0"
      },
      "geometry":{
         "type":"Point",
         "coordinates":[
            120.387,
            17.5746
         ]
      }
   },
   {
      "type":"Feature",
      "properties":{
         "name":"Cabanatuan City, Nueva Ecija - Radyo Totoo",
         "freq_value":"1467.0"
      },
      "geometry":{
         "type":"Point",
         "coordinates":[
            120.975,
            15.4874
         ]
      }
   },
   {
      "type":"Feature",
      "properties":{
         "name":"DZPA - Abra - Radyo Totoo",
         "freq_value":"873.0"
      },
      "geometry":{
         "type":"Point",
         "coordinates":[
            120.619,
            17.5977
         ]
      }
   },
   {
      "type":"Feature",
      "properties":{
         "name":"DZEA - Ilocos Norte - Radyo Totoo",
         "freq_value":"909.0"
      },
      "geometry":{
         "type":"Point",
         "coordinates":[
            120.593,
            18.1981
         ]
      }
   },
   {
      "type":"Feature",
      "properties":{
         "name":"DZNS - Ilocos Sur - Radyo Totoo",
         "freq_value":"963.0"
      },
      "geometry":{
         "type":"Point",
         "coordinates":[
            120.387,
            17.5746
         ]
      }
   },
   {
      "type":"Feature",
      "properties":{
         "name":"DYKA - Antique - Radyo Totoo",
         "freq_value":"801.0"
      },
      "geometry":{
         "type":"Point",
         "coordinates":[
            121.944,
            10.7548
         ]
      }
   },
   {
      "type":"Feature",
      "properties":{
         "name":"DYRF - Cebu City, Cebu - Radyo Totoo",
         "freq_value":"1215.0"
      },
      "geometry":{
         "type":"Point",
         "coordinates":[
            123.895,
            10.3101
         ]
      }
   },
   {
      "type":"Feature",
      "properties":{
         "name":"DXHM-AM - Mati City, Davao Oriental - Radyo Totoo",
         "freq_value":"549.0"
      },
      "geometry":{
         "type":"Point",
         "coordinates":[
            125.613,
            7.07996
         ]
      }
   },
   {
      "type":"Feature",
      "properties":{
         "name":"DXCP-AM - General Santos City, South Cotabato - Radyo Totoo",
         "freq_value":"585.0"
      },
      "geometry":{
         "type":"Point",
         "coordinates":[
            125.197,
            6.12918
         ]
      }
   },
   {
      "type":"Feature",
      "properties":{
         "name":"DXDB-AM - Malaybalay City, Bukidnon - Radyo Totoo",
         "freq_value":"594.0"
      },
      "geometry":{
         "type":"Point",
         "coordinates":[
            125.132,
            8.16016
         ]
      }
   },
   {
      "type":"Feature",
      "properties":{
         "name":"DXMM-AM - Jolo, Sulu - Radyo Totoo",
         "freq_value":"927.0"
      },
      "geometry":{
         "type":"Point",
         "coordinates":[
            120.995,
            6.04696
         ]
      }
   },
   {
      "type":"Feature",
      "properties":{
         "name":"DWBS - Legazpi City, Albay - Radyo Veritas",
         "freq_value":"1008.0"
      },
      "geometry":{
         "type":"Point",
         "coordinates":[
            123.745,
            13.1363
         ]
      }
   },
   {
      "type":"Feature",
      "properties":{
         "name":"DWRV - Bayombong, Nueva Vizcaya - Radyo Veritas",
         "freq_value":"1233.0"
      },
      "geometry":{
         "type":"Point",
         "coordinates":[
            121.152,
            16.4853
         ]
      }
   },
   {
      "type":"Feature",
      "properties":{
         "name":"DXDN-AM - Tagum City, Davao Del Norte - Radyo Ukay",
         "freq_value":"936.0"
      },
      "geometry":{
         "type":"Point",
         "coordinates":[
            125.613,
            7.07996
         ]
      }
   },
   {
      "type":"Feature",
      "properties":{
         "name":"DXDS-AM - Digos City, Davao Del Sur - Radyo Ukay",
         "freq_value":"1161.0"
      },
      "geometry":{
         "type":"Point",
         "coordinates":[
            125.613,
            7.07996
         ]
      }
   },
   {
      "type":"Feature",
      "properties":{
         "name":"DXLL-AM -Zamboanga City - Radyo Ukay",
         "freq_value":"1044.0"
      },
      "geometry":{
         "type":"Point",
         "coordinates":[
            122.063,
            6.91136
         ]
      }
   },
   {
      "type":"Feature",
      "properties":{
         "name":"DXLL-AM - Cotabato City, Maguindanao - Radyo Ukay",
         "freq_value":"1089.0"
      },
      "geometry":{
         "type":"Point",
         "coordinates":[
            124.243,
            7.22301
         ]
      }
   },
   {
      "type":"Feature",
      "properties":{
         "name":"DXRA-AM - Davao City - Radyo Ukay",
         "freq_value":"819.0"
      },
      "geometry":{
         "type":"Point",
         "coordinates":[
            125.613,
            7.07996
         ]
      }
   },
   {
      "type":"Feature",
      "properties":{
         "name":"DXMV-AM - Valencia, Bukidnon - Radyo Ukay",
         "freq_value":"1134.0"
      },
      "geometry":{
         "type":"Point",
         "coordinates":[
            125.083,
            7.9167
         ]
      }
   },
   {
      "type":"Feature",
      "properties":{
         "name":"DZME -Metro Manila - Radyo Uno",
         "freq_value":"1530.0"
      },
      "geometry":{
         "type":"Point",
         "coordinates":[
            120.971,
            14.6495
         ]
      }
   },
   {
      "type":"Feature",
      "properties":{
         "name":"DXVP-AM - Zamboanga City - Radyo Verdadero",
         "freq_value":"1467.0"
      },
      "geometry":{
         "type":"Point",
         "coordinates":[
            122.063,
            6.91136
         ]
      }
   },
   {
      "type":"Feature",
      "properties":{
         "name":"DXFM-AM - Marawi, Lanao Del Sur - Ranao Radio BS",
         "freq_value":"1593.0"
      },
      "geometry":{
         "type":"Point",
         "coordinates":[
            124.294,
            7.99855
         ]
      }
   },
   {
      "type":"Feature",
      "properties":{
         "name":"DXRC - Zamboanga City - Republic BS",
         "freq_value":"1287.0"
      },
      "geometry":{
         "type":"Point",
         "coordinates":[
            122.063,
            6.91136
         ]
      }
   },
   {
      "type":"Feature",
      "properties":{
         "name":"DXRL-AM - Koronadal City, South Cotabato - Republic BS",
         "freq_value":"1341.0"
      },
      "geometry":{
         "type":"Point",
         "coordinates":[
            124.846,
            6.50139
         ]
      }
   },
   {
      "type":"Feature",
      "properties":{
         "name":"DWRB-AM - Lipa City, Batangas - Ribbon BC",
         "freq_value":"1476.0"
      },
      "geometry":{
         "type":"Point",
         "coordinates":[
            121.165,
            13.9413
         ]
      }
   },
   {
      "type":"Feature",
      "properties":{
         "name":"DXMB-AM - Malaybalay City, Bukidnon - Radyo Mo Nationwide",
         "freq_value":"648.0"
      },
      "geometry":{
         "type":"Point",
         "coordinates":[
            125.132,
            8.16016
         ]
      }
   },
   {
      "type":"Feature",
      "properties":{
         "name":"DXVR - Valencia, Bukidnon - Radyo Mo Nationwide",
         "freq_value":"95.3"
      },
      "geometry":{
         "type":"Point",
         "coordinates":[
            125.083,
            7.9167
         ]
      }
   },
   {
      "type":"Feature",
      "properties":{
         "name":"DYCC-AM - Calbayog City, Samar - Radyo Mo Nationwide",
         "freq_value":"936.0"
      },
      "geometry":{
         "type":"Point",
         "coordinates":[
            125.012,
            11.8016
         ]
      }
   },
   {
      "type":"Feature",
      "properties":{
         "name":"DXMY-AM - Cotabato City, Maguindanao - Radyo Mo Nationwide",
         "freq_value":"729.0"
      },
      "geometry":{
         "type":"Point",
         "coordinates":[
            124.243,
            7.22301
         ]
      }
   },
   {
      "type":"Feature",
      "properties":{
         "name":"DXKS-AM - Surigao City, Surigao Del Norte - Radyo Mo Nationwide",
         "freq_value":"1080.0"
      },
      "geometry":{
         "type":"Point",
         "coordinates":[
            125.446,
            9.79304
         ]
      }
   },
   {
      "type":"Feature",
      "properties":{
         "name":"Bacolod - Radyo Mo Nationwide",
         "freq_value":"747.0"
      },
      "geometry":{
         "type":"Point",
         "coordinates":[
            122.951,
            10.6784
         ]
      }
   },
   {
      "type":"Feature",
      "properties":{
         "name":"DYHP - Cebu City, Cebu - Radyo Mo Nationwide",
         "freq_value":"612.0"
      },
      "geometry":{
         "type":"Point",
         "coordinates":[
            123.895,
            10.3101
         ]
      }
   },
   {
      "type":"Feature",
      "properties":{
         "name":"DYKR - Kalibo - Radyo Mo Nationwide",
         "freq_value":"1161.0"
      },
      "geometry":{
         "type":"Point",
         "coordinates":[
            122.368,
            11.7091
         ]
      }
   },
   {
      "type":"Feature",
      "properties":{
         "name":"DXPR - Pagadian City, Zamboanga Del Sur - Radyo Mo Nationwide",
         "freq_value":"603.0"
      },
      "geometry":{
         "type":"Point",
         "coordinates":[
            123.425,
            7.8238
         ]
      }
   },
   {
      "type":"Feature",
      "properties":{
         "name":"DXKR - Koronadal City, South Cotabato - Radyo Mo Nationwide",
         "freq_value":"639.0"
      },
      "geometry":{
         "type":"Point",
         "coordinates":[
            124.846,
            6.50139
         ]
      }
   },
   {
      "type":"Feature",
      "properties":{
         "name":"DZLT - Lucena City, Quezon - Radyo Mo Nationwide",
         "freq_value":"1188.0"
      },
      "geometry":{
         "type":"Point",
         "coordinates":[
            121.612,
            13.9353
         ]
      }
   },
   {
      "type":"Feature",
      "properties":{
         "name":"DWPR -Dagupan City, Pangasinan - Radyo Mo Nationwide",
         "freq_value":"1296.0"
      },
      "geometry":{
         "type":"Point",
         "coordinates":[
            120.332,
            16.0284
         ]
      }
   },
   {
      "type":"Feature",
      "properties":{
         "name":"DZCV - Tuguegarao City, Cagayan - Radyo Mo Nationwide",
         "freq_value":"684.0"
      },
      "geometry":{
         "type":"Point",
         "coordinates":[
            121.733,
            17.6167
         ]
      }
   },
   {
      "type":"Feature",
      "properties":{
         "name":"DWDY - Cauayan City, Isabela - Radyo Mo Nationwide",
         "freq_value":"1107.0"
      },
      "geometry":{
         "type":"Point",
         "coordinates":[
            121.765,
            16.9307
         ]
      }
   },
   {
      "type":"Feature",
      "properties":{
         "name":"DYRI - Iloilo - Radyo Mo Nationwide",
         "freq_value":"774.0"
      },
      "geometry":{
         "type":"Point",
         "coordinates":[
            122.571,
            10.6969
         ]
      }
   },
   {
      "type":"Feature",
      "properties":{
         "name":"DWES-AM - Narra, Palawan - Rolin Broadcasting Enterprises",
         "freq_value":"792.0"
      },
      "geometry":{
         "type":"Point",
         "coordinates":[
            118.4,
            9.2667
         ]
      }
   },
   {
      "type":"Feature",
      "properties":{
         "name":"DWJS-AM - Roxas, Palawan - Rolin Broadcasting Enterprises",
         "freq_value":"1134.0"
      },
      "geometry":{
         "type":"Point",
         "coordinates":[
            119.347,
            10.3254
         ]
      }
   },
   {
      "type":"Feature",
      "properties":{
         "name":"DXML-AM - Digos City, Davao Del Sur - Rural Electrification Corp.",
         "freq_value":"1044.0"
      },
      "geometry":{
         "type":"Point",
         "coordinates":[
            125.613,
            7.07996
         ]
      }
   },
   {
      "type":"Feature",
      "properties":{
         "name":"DWBL - Metro Manila - Serbisyo Publiko",
         "freq_value":"1242.0"
      },
      "geometry":{
         "type":"Point",
         "coordinates":[
            121.033,
            14.5833
         ]
      }
   },
   {
      "type":"Feature",
      "properties":{
         "name":"DZAR - Metro Manila - Sonshine Radio",
         "freq_value":"1026.0"
      },
      "geometry":{
         "type":"Point",
         "coordinates":[
            121.034,
            14.5616
         ]
      }
   },
   {
      "type":"Feature",
      "properties":{
         "name":"DZRD - Dagupan City, Pangasinan - Sonshine Radio",
         "freq_value":"981.0"
      },
      "geometry":{
         "type":"Point",
         "coordinates":[
            120.332,
            16.0284
         ]
      }
   },
   {
      "type":"Feature",
      "properties":{
         "name":"DYAR - Cebu - Sonshine Radio",
         "freq_value":"765.0"
      },
      "geometry":{
         "type":"Point",
         "coordinates":[
            123.895,
            10.3101
         ]
      }
   },
   {
      "type":"Feature",
      "properties":{
         "name":"DXYZ-AM - Zamboanga City - Sonshine Radio",
         "freq_value":"963.0"
      },
      "geometry":{
         "type":"Point",
         "coordinates":[
            122.063,
            6.91136
         ]
      }
   },
   {
      "type":"Feature",
      "properties":{
         "name":"DXRE-AM - General Santos City, South Cotabato - Sonshine Radio",
         "freq_value":"837.0"
      },
      "geometry":{
         "type":"Point",
         "coordinates":[
            125.197,
            6.12918
         ]
      }
   },
   {
      "type":"Feature",
      "properties":{
         "name":"DXRO-AM - Cotabato City, Maguindanao - Sonshine Radio",
         "freq_value":"945.0"
      },
      "geometry":{
         "type":"Point",
         "coordinates":[
            124.243,
            7.22301
         ]
      }
   },
   {
      "type":"Feature",
      "properties":{
         "name":"DWSI - Santiago City, Isabela - Sonshine Radio",
         "freq_value":"864.0"
      },
      "geometry":{
         "type":"Point",
         "coordinates":[
            121.554,
            16.715
         ]
      }
   },
   {
      "type":"Feature",
      "properties":{
         "name":"DXCL-AM - Cagayan De Oro City, Misamis Oriental - Sonshine Radio",
         "freq_value":"1098.0"
      },
      "geometry":{
         "type":"Point",
         "coordinates":[
            124.649,
            8.48514
         ]
      }
   },
   {
      "type":"Feature",
      "properties":{
         "name":"DXBL-AM - Bislig City, Surigao Del Sur - Sonshine Radio",
         "freq_value":"801.0"
      },
      "geometry":{
         "type":"Point",
         "coordinates":[
            126.099,
            8.71809
         ]
      }
   },
   {
      "type":"Feature",
      "properties":{
         "name":"DZSP-AM - San Pablo City, Laguna - Sonshine Radio",
         "freq_value":"864.0"
      },
      "geometry":{
         "type":"Point",
         "coordinates":[
            121.326,
            14.071
         ]
      }
   },
   {
      "type":"Feature",
      "properties":{
         "name":"DZYA - Tuguegarao City, Cagayan - Sonshine Radio",
         "freq_value":"765.0"
      },
      "geometry":{
         "type":"Point",
         "coordinates":[
            121.733,
            17.6167
         ]
      }
   },
   {
      "type":"Feature",
      "properties":{
         "name":"DZYI - Ilagan, Isabela - Sonshine Radio",
         "freq_value":"711.0"
      },
      "geometry":{
         "type":"Point",
         "coordinates":[
            121.886,
            17.1433
         ]
      }
   },
   {
      "type":"Feature",
      "properties":{
         "name":"DWAY - Cabanatuan City, Nueva Ecija - Sonshine Radio",
         "freq_value":"1332.0"
      },
      "geometry":{
         "type":"Point",
         "coordinates":[
            120.975,
            15.4874
         ]
      }
   },
   {
      "type":"Feature",
      "properties":{
         "name":"DXRD-AM - Davao City - Sonshine Radio",
         "freq_value":"711.0"
      },
      "geometry":{
         "type":"Point",
         "coordinates":[
            125.613,
            7.07996
         ]
      }
   },
   {
      "type":"Feature",
      "properties":{
         "name":"DXRB-AM Butuan City, Agusan Del Norte - Sonshine Radio",
         "freq_value":"873.0"
      },
      "geometry":{
         "type":"Point",
         "coordinates":[
            125.555,
            8.95003
         ]
      }
   },
   {
      "type":"Feature",
      "properties":{
         "name":"DXJR-AM - Cagayan De Oro City, Misamis Oriental - Southern Institute Of Technlogy",
         "freq_value":"1440.0"
      },
      "geometry":{
         "type":"Point",
         "coordinates":[
            124.649,
            8.48514
         ]
      }
   },
   {
      "type":"Feature",
      "properties":{
         "name":"DXSC-AM - Calarian,Zamboanga City - Southern Philippines Mass Comm.",
         "freq_value":"819.0"
      },
      "geometry":{
         "type":"Point",
         "coordinates":[
            122.063,
            6.91136
         ]
      }
   },
   {
      "type":"Feature",
      "properties":{
         "name":"DZSR - Metro Manila - Sports Radio Sports Radio",
         "freq_value":"918.0"
      },
      "geometry":{
         "type":"Point",
         "coordinates":[
            121.05,
            14.6495
         ]
      }
   },
   {
      "type":"Feature",
      "properties":{
         "name":"DXGD-AM - Bongao, Sulu - Sulu Tawi-Tawi Broadcasting",
         "freq_value":"675.0"
      },
      "geometry":{
         "type":"Point",
         "coordinates":[
            119.767,
            5.03333
         ]
      }
   },
   {
      "type":"Feature",
      "properties":{
         "name":"DZBB - Metro Manila - Super",
         "freq_value":"594.0"
      },
      "geometry":{
         "type":"Point",
         "coordinates":[
            121.05,
            14.6495
         ]
      }
   },
   {
      "type":"Feature",
      "properties":{
         "name":"DZBB - Basco, Batanes - Super",
         "freq_value":"594.0"
      },
      "geometry":{
         "type":"Point",
         "coordinates":[
            121.967,
            20.45
         ]
      }
   },
   {
      "type":"Feature",
      "properties":{
         "name":"Zamboanga Del Norte - Diplog City - Super",
         "freq_value":"1350.0"
      },
      "geometry":{
         "type":"Point",
         "coordinates":[
            123.347,
            8.59201
         ]
      }
   },
   {
      "type":"Feature",
      "properties":{
         "name":"DXBB-AM - General Santos City, South Cotabato - Super",
         "freq_value":"1107.0"
      },
      "geometry":{
         "type":"Point",
         "coordinates":[
            125.197,
            6.12918
         ]
      }
   },
   {
      "type":"Feature",
      "properties":{
         "name":"DXBM-AM - Cotabato City, Maguindanao - Super",
         "freq_value":"990.0"
      },
      "geometry":{
         "type":"Point",
         "coordinates":[
            124.243,
            7.22301
         ]
      }
   },
   {
      "type":"Feature",
      "properties":{
         "name":"DXRL - Koronadal City, South Cotabato - Super",
         "freq_value":"1179.0"
      },
      "geometry":{
         "type":"Point",
         "coordinates":[
            124.846,
            6.50139
         ]
      }
   },
   {
      "type":"Feature",
      "properties":{
         "name":"DXYK-AM - Butuan City, Agusan Del Norte - Super",
         "freq_value":"1179.0"
      },
      "geometry":{
         "type":"Point",
         "coordinates":[
            125.555,
            8.95003
         ]
      }
   },
   {
      "type":"Feature",
      "properties":{
         "name":"DYBB - Roxas City, Capiz - Super",
         "freq_value":"1503.0"
      },
      "geometry":{
         "type":"Point",
         "coordinates":[
            122.756,
            11.5852
         ]
      }
   },
   {
      "type":"Feature",
      "properties":{
         "name":"DWRA - Baguio City, Benguet - Super",
         "freq_value":"1413.0"
      },
      "geometry":{
         "type":"Point",
         "coordinates":[
            120.594,
            16.4116
         ]
      }
   },
   {
      "type":"Feature",
      "properties":{
         "name":"DYSS - Cebu - Super",
         "freq_value":"999.0"
      },
      "geometry":{
         "type":"Point",
         "coordinates":[
            123.895,
            10.3101
         ]
      }
   },
   {
      "type":"Feature",
      "properties":{
         "name":"Mindanao - Davao - Super",
         "freq_value":"1125.0"
      },
      "geometry":{
         "type":"Point",
         "coordinates":[
            125.613,
            7.07996
         ]
      }
   },
   {
      "type":"Feature",
      "properties":{
         "name":"Bacolod - Super",
         "freq_value":"1179.0"
      },
      "geometry":{
         "type":"Point",
         "coordinates":[
            122.951,
            10.6784
         ]
      }
   },
   {
      "type":"Feature",
      "properties":{
         "name":"Iloilo - Super",
         "freq_value":"1323.0"
      },
      "geometry":{
         "type":"Point",
         "coordinates":[
            122.571,
            10.6969
         ]
      }
   },
   {
      "type":"Feature",
      "properties":{
         "name":"DZBB - Ilocos Norte - Super",
         "freq_value":"1269.0"
      },
      "geometry":{
         "type":"Point",
         "coordinates":[
            120.593,
            18.1981
         ]
      }
   },
   {
      "type":"Feature",
      "properties":{
         "name":"DYSP-AM - Puerto Princesa City, Palawan - Super",
         "freq_value":"909.0"
      },
      "geometry":{
         "type":"Point",
         "coordinates":[
            118.733,
            9.7333
         ]
      }
   },
   {
      "type":"Feature",
      "properties":{
         "name":"DYRT - Tagbilaran, Bohol - Tagbilaran Broadcasting",
         "freq_value":"1116.0"
      },
      "geometry":{
         "type":"Point",
         "coordinates":[
            123.863,
            9.64842
         ]
      }
   },
   {
      "type":"Feature",
      "properties":{
         "name":"DYXT-AM - Taglibaran, Bohol - Tatak RMN",
         "freq_value":"1071.0"
      },
      "geometry":{
         "type":"Point",
         "coordinates":[
            123.863,
            9.64842
         ]
      }
   },
   {
      "type":"Feature",
      "properties":{
         "name":"DWWW - Metro Manila - The Premiere Station",
         "freq_value":"774.0"
      },
      "geometry":{
         "type":"Point",
         "coordinates":[
            121.05,
            14.6495
         ]
      }
   },
   {
      "type":"Feature",
      "properties":{
         "name":"DWVA - San Fernando City, La Union - The Voice of America",
         "freq_value":"1170.0"
      },
      "geometry":{
         "type":"Point",
         "coordinates":[
            120.319,
            16.617
         ]
      }
   },
   {
      "type":"Feature",
      "properties":{
         "name":"DZRJ - Metro Manila - The Voice of The Philippines",
         "freq_value":"810.0"
      },
      "geometry":{
         "type":"Point",
         "coordinates":[
            121.033,
            14.5667
         ]
      }
   },
   {
      "type":"Feature",
      "properties":{
         "name":"DXSY-AM - Ozamis City, Misamis Occidental - Times BC",
         "freq_value":"1242.0"
      },
      "geometry":{
         "type":"Point",
         "coordinates":[
            123.841,
            8.14601
         ]
      }
   },
   {
      "type":"Feature",
      "properties":{
         "name":"DZEM - Metro Manila - Tining Ng Katotohanan",
         "freq_value":"954.0"
      },
      "geometry":{
         "type":"Point",
         "coordinates":[
            121.05,
            14.6495
         ]
      }
   },